[{"name":"grunge","artists":[{"name":"Wipers","years_active":[{"start":1977,"end":1988},{"start":1993,"end":1999}],"id":"ARJJ8RT1187B999298","artist_location":{"city":"Portland","region":"Oregon","location":"Portland, OR, US","country":"United States"}},{"name":"Eddie Vedder","years_active":[{"start":1979}],"id":"AR3RK011187FB3CE3B","artist_location":{"city":"Evanston","region":"IL","location":"Evanston, Illinois","country":"United States"}},{"name":"Violent Femmes","years_active":[{"start":1980,"end":1987},{"start":1988,"end":2009},{"start":2013}],"id":"ARV4GYZ1187B9B8171","artist_location":{"city":"Milwaukee","region":"WI","location":"Milwaukee, WI","country":"United States"}},{"name":"Meat Puppets","years_active":[{"start":1980,"end":1996},{"start":1999,"end":2002},{"start":2006}],"id":"ARR2JBE1187B9AF435","artist_location":{"city":"Phoenix","region":null,"location":"Phoenix, AZ","country":"United States"}},{"name":"Butthole Surfers","years_active":[{"start":1981}],"id":"ARPQ4Z01187FB3A736","artist_location":{"city":"San Antonio","region":"Texas","location":"San Antonio, TX, US","country":"United States"}},{"name":"Faith No More","years_active":[{"start":1981,"end":1998},{"start":2009,"end":2012},{"start":2014}],"id":"AR0AJG11187FB51EFC","artist_location":{"city":"San Francisco","region":"California","location":"San Francisco, CA, US","country":"United States"}},{"name":"Kurt Cobain","years_active":[{"start":1982,"end":1994}],"id":"ARYXDG71187FB437FE","artist_location":{"city":"Aberdeen","region":"Washington","location":"Aberdeen, WA, US","country":"United States"}},{"name":"Dave Grohl","years_active":[{"start":1982}],"id":"ARTNECM13A51BB576C","artist_location":{"city":"Warren","region":"OH","location":"Warren, Ohio","country":"United States"}},{"name":"Soul Asylum","years_active":[{"start":1983}],"id":"ARQXR6R1187FB46FD6","artist_location":{"city":"Minneapolis","region":"Minnesota","location":"Minneapolis, MN, US","country":"United States"}},{"name":"Living Colour","years_active":[{"start":1983,"end":1995},{"start":2000}],"id":"ARQE6FL1187B99DA64","artist_location":{"city":"New York","region":"New York","location":"New York, NY, US","country":"United States"}},{"name":"Phish","years_active":[{"start":1983}],"id":"ARJY4AD1187B98FC1A","artist_location":{"city":"Burlington","region":"Vermont","location":"Burlington, VT, US","country":"United States"}},{"name":"Melvins","years_active":[{"start":1983}],"id":"AROLDZG1187FB50AFB","artist_location":{"city":"Montesano","region":"Washington","location":"Montesano, WA, US","country":"United States"}},{"name":"Dinosaur Jr.","years_active":[{"start":1984,"end":1997},{"start":2005}],"id":"AR9YWMS1187FB43A34","artist_location":{"city":"Amherst","region":"Massachusetts","location":"Amherst, MA, US","country":"United States"}},{"name":"The Offspring","years_active":[{"start":1984}],"id":"ARP28RX1187B9AF6C4","artist_location":{"city":"Huntington Beach","region":"California","location":"Huntington Beach, CA, US","country":"United States"}},{"name":"Mark Lanegan","years_active":[{"start":1984}],"id":"AR890YA1187B99E328","artist_location":{"city":"Ellensburg","region":"Washington","location":"Ellensburg, WA, US","country":"United States"}},{"name":"Primus","years_active":[{"start":1984,"end":2000},{"start":2003}],"id":"AR62EDZ1187B9AC433","artist_location":{"city":"El Sobrante","region":"California","location":"El Sobrante, CA, US","country":"United States"}},{"name":"Soundgarden","years_active":[{"start":1984,"end":1997},{"start":2010}],"id":"AR5N8VN1187FB37A4E","artist_location":{"city":"Seattle","region":"Washington","location":"Seattle, WA, US","country":"United States"}},{"name":"Jane's Addiction","years_active":[{"start":1985,"end":1991},{"start":1997,"end":1997},{"start":2001,"end":2004},{"start":2008,"end":2014}],"id":"ARQOATR1187B9AE959","artist_location":{"city":"Los Angeles","region":"California","location":"Los Angeles, CA, US","country":"United States"}},{"name":"Stone Temple Pilots","years_active":[{"start":1985,"end":2002},{"start":2008}],"id":"ARTAFV91187B9BA17C","artist_location":{"city":"San Diego","region":"CA","location":"San Diego, CA","country":"United States"}},{"name":"Billy Corgan","years_active":[{"start":1985}],"id":"ARBKIRL1187B9AB8D0","artist_location":{"city":"Elk Grove Village","region":"IL","location":"Elk Grove Village, IL","country":"United States"}},{"name":"Screaming Trees","years_active":[{"start":1985,"end":2000}],"id":"AR15DJQ1187FB5910C","artist_location":{"city":"Ellensburg","region":"Washington","location":"Ellensburg, WA, US","country":"United States"}},{"name":"Goo Goo Dolls","years_active":[{"start":1986}],"id":"AR07SOR1187FB46179","artist_location":{"city":"Buffalo","region":"New York","location":"Buffalo, NY, US","country":"United States"}},{"name":"Sugar Ray","years_active":[{"start":1986}],"id":"ARW5IF01187B9AEA98","artist_location":{"city":"Newport Beach","region":"California","location":"Newport Beach, CA, US","country":"United States"}},{"name":"Hootie & the Blowfish","years_active":[{"start":1986}],"id":"AR374SZ1187B994BA0","artist_location":{"city":"Columbia","region":"SC","location":"Columbia, South Carolina","country":"United States"}},{"name":"No Doubt","years_active":[{"start":1986}],"id":"ARPVCLJ1187B9AC403","artist_location":{"city":"Anaheim","region":"California","location":"Anaheim, CA, US","country":"United States"}},{"name":"The Lemonheads","years_active":[{"start":1986,"end":1997},{"start":2005}],"id":"AR3EPSZ1187B997170","artist_location":{"city":"Boston","region":"Massachusetts","location":"Boston, MA, US","country":"United States"}},{"name":"The Afghan Whigs","years_active":[{"start":1986,"end":2001},{"start":2006,"end":2006},{"start":2011}],"id":"ARJ59K61187FB5B43E","artist_location":{"city":"Cincinnati","region":"OH","location":"Cincinnati, OH","country":"United States"}},{"name":"The Jesus Lizard","years_active":[{"start":1987,"end":1999},{"start":2008,"end":2010},{"start":2013}],"id":"ARCDZ0K1187FB43757","artist_location":{"city":"Austin","region":"Texas","location":"Austin, TX, US","country":"United States"}},{"name":"Nirvana","years_active":[{"start":1987,"end":1994}],"id":"ARH3S5S1187FB4F76B","artist_location":{"city":"Aberdeen","region":"Washington","location":"Aberdeen, WA, US","country":"United States"}},{"name":"Alice in Chains","years_active":[{"start":1987,"end":2002},{"start":2005}],"id":"ARSW5F51187FB4CFC9","artist_location":{"city":"Seattle","region":"Washington","location":"Seattle, WA, US","country":"United States"}},{"name":"L7","years_active":[{"start":1987,"end":2001}],"id":"AR3KGPQ1187FB53C84","artist_location":{"city":"Los Angeles","region":"California","location":"Los Angeles, CA, US","country":"United States"}},{"name":"Gin Blossoms","years_active":[{"start":1987,"end":1997},{"start":2002}],"id":"AREYJKQ1187B9AEAB5","artist_location":{"city":"Tempe","region":"Arizona","location":"Tempe, AZ, US","country":"United States"}},{"name":"Lenny Kravitz","years_active":[{"start":1988}],"id":"ARFA4301187B9AD04A","artist_location":{"city":"New York","region":"New York","location":"New York, NY, US","country":"United States"}},{"name":"Deftones","years_active":[{"start":1988}],"id":"ARXSABJ1187FB3C336","artist_location":{"city":"Sacramento","region":"California","location":"Sacramento, CA, US","country":"United States"}},{"name":"Spin Doctors","years_active":[{"start":1988,"end":1999},{"start":2001}],"id":"ARVT9E11187B9AEC41","artist_location":{"city":"New York","region":"NY","location":"New York, NY","country":"United States"}},{"name":"Lit","years_active":[{"start":1988}],"id":"ARF1Q9B1187B9ADCC7","artist_location":{"city":"Orange","region":"CA","location":"Orange County, CA","country":"United States"}},{"name":"Mudhoney","years_active":[{"start":1988}],"id":"ARGBR4I1187B99D073","artist_location":{"city":"Seattle","region":"Washington","location":"Seattle, WA, US","country":"United States"}},{"name":"311","years_active":[{"start":1988}],"id":"ARDRXUM1187FB4D131","artist_location":{"city":"Omaha","region":"Nebraska","location":"Omaha, NE, US","country":"United States"}},{"name":"John Frusciante","years_active":[{"start":1988}],"id":"ARW27IA1187B9AE278","artist_location":{"city":"New York","region":"New York","location":"New York, NY, US","country":"United States"}},{"name":"The Smashing Pumpkins","years_active":[{"start":1988,"end":2000},{"start":2006}],"id":"ARN5NHX1187FB4F755","artist_location":{"city":"Chicago","region":"Illinois","location":"Chicago, IL, US","country":"United States"}},{"name":"Better Than Ezra","years_active":[{"start":1988}],"id":"AR94SFV1187FB4DA2C","artist_location":{"city":"Baton Rouge","region":"Louisiana","location":"Baton Rouge, LA, US","country":"United States"}},{"name":"Toadies","years_active":[{"start":1989,"end":2001},{"start":2006}],"id":"ARFATA11187B9AC620","artist_location":{"city":"Fort Worth","region":"Texas","location":"Fort Worth, TX, US","country":"United States"}},{"name":"Helmet","years_active":[{"start":1989,"end":1998},{"start":2004}],"id":"AR0IVSA1187FB4F069","artist_location":{"city":"New York","region":"New York","location":"New York, NY, US","country":"United States"}},{"name":"Fuel","years_active":[{"start":1989}],"id":"ARCEAJY1187FB4DF61","artist_location":{"city":"Jackson","region":"Tennessee","location":"Jackson, TN, US","country":"United States"}},{"name":"Hole","years_active":[{"start":1989,"end":2002},{"start":2009,"end":2012},{"start":2014}],"id":"AR8V18L1187B9B4AF6","artist_location":{"city":"Los Angeles","region":"CA","location":"Los Angeles, CA","country":"United States"}},{"name":"Morphine","years_active":[{"start":1989,"end":1999}],"id":"ARVHCWL1187B9B8F60","artist_location":{"city":"Cambridge","region":"Massachusetts","location":"Cambridge, MA, US","country":"United States"}},{"name":"The Wallflowers","years_active":[{"start":1989,"end":2007},{"start":2009}],"id":"AR9HQ7S1187B9ACDCA","artist_location":{"city":"Los Angeles","region":"CA","location":"Los Angeles, CA","country":"United States"}},{"name":"The Breeders","years_active":[{"start":1990}],"id":"AR62BB21187B9AC83D","artist_location":{"city":"Boston","region":"MA","location":"Boston, MA","country":"United States"}},{"name":"Blind Melon","years_active":[{"start":1990,"end":1999},{"start":2006,"end":2008},{"start":2010}],"id":"ARPDMG81187FB5B858","artist_location":{"city":"Los Angeles","region":"California","location":"Los Angeles, CA, US","country":"United States"}},{"name":"Tool","years_active":[{"start":1990}],"id":"ARTP7K51187B9B0D37","artist_location":{"city":"Los Angeles","region":"California","location":"Los Angeles, CA, US","country":"United States"}},{"name":"Kid Rock","years_active":[{"start":1990}],"id":"AR4JOEZ1187B9AE99A","artist_location":{"city":"Detroit","region":"MI","location":"Detroit, MI","country":"United States"}},{"name":"Pearl Jam","years_active":[{"start":1990}],"id":"ARFVYJI1187B9B8E13","artist_location":{"city":"Seattle","region":"Washington","location":"Seattle, WA, US","country":"United States"}},{"name":"Cake","years_active":[{"start":1991}],"id":"ARQRQRA12131B4B5A8","artist_location":{"city":"Sacramento","region":"California","location":"Sacramento, CA, US","country":"United States"}},{"name":"Incubus","years_active":[{"start":1991}],"id":"AR1RMYB1187FB5A59E","artist_location":{"city":"Calabasas","region":"California","location":"Calabasas, CA, US","country":"United States"}},{"name":"Jeff Buckley","years_active":[{"start":1991,"end":1997}],"id":"ARTO3L81187B9ACA8C","artist_location":{"city":"Anaheim","region":"California","location":"Anaheim, CA, US","country":"United States"}},{"name":"Vertical Horizon","years_active":[{"start":1991}],"id":"ARTMGWK1187B9AC568","artist_location":{"city":"Washington","region":"District of Columbia","location":"Washington, DC, US","country":"United States"}},{"name":"Counting Crows","years_active":[{"start":1991}],"id":"ARLY7P81187B9ACF4D","artist_location":{"city":"San Francisco","region":"California","location":"San Francisco, CA, US","country":"United States"}},{"name":"Soul Coughing","years_active":[{"start":1992,"end":2000}],"id":"ARUW1RZ1187B99082E","artist_location":{"city":"New York","region":"NY","location":"New York, NY","country":"United States"}},{"name":"Everclear","years_active":[{"start":1992}],"id":"ARTH2D01187B98D865","artist_location":{"city":"Portland","region":"Oregon","location":"Portland, OR, US","country":"United States"}},{"name":"Stone Sour","years_active":[{"start":1992,"end":1997},{"start":2000}],"id":"ARZCUK61187FB411EF","artist_location":{"city":"Des Moines","region":"Iowa","location":"Des Moines, IA, US","country":"United States"}},{"name":"Puddle of Mudd","years_active":[{"start":1992}],"id":"ARSCSKH1187B9B95EE","artist_location":{"city":"Kansas City","region":"Missouri","location":"Kansas City, MO, US","country":"United States"}},{"name":"Collective Soul","years_active":[{"start":1992}],"id":"ARDJAPU1187B9B4D48","artist_location":{"city":"Stockbridge","region":"Georgia","location":"Stockbridge, GA, US","country":"United States"}},{"name":"Creed","years_active":[{"start":1993,"end":2004},{"start":2009}],"id":"ARVHLDB1187FB5B45A","artist_location":{"city":"Tallahassee","region":"Florida","location":"Tallahassee, FL, US","country":"United States"}},{"name":"Tonic","years_active":[{"start":1993,"end":2004},{"start":2008}],"id":"ARFM7OI1187B990C49","artist_location":{"city":"Los Angeles","region":"California","location":"Los Angeles, CA, US","country":"United States"}},{"name":"The Presidents of the United States of America","years_active":[{"start":1993,"end":1998},{"start":2000,"end":2000},{"start":2002}],"id":"ARXDFN01187B9AE80E","artist_location":{"city":"Seattle","region":"WA","location":"Seattle, WA","country":"United States"}},{"name":"Third Eye Blind","years_active":[{"start":1993}],"id":"AR2FO2M1187B9B9C81","artist_location":{"city":"San Francisco","region":"California","location":"San Francisco, CA, US","country":"United States"}},{"name":"Filter","years_active":[{"start":1993,"end":2002},{"start":2007}],"id":"AR1OWF21187B9AC594","artist_location":{"city":"Cleveland","region":"OH","location":"Cleveland, Ohio","country":"United States"}},{"name":"Papa Roach","years_active":[{"start":1993}],"id":"AR1O4NH1187B98F0C9","artist_location":{"city":"Vacaville","region":"California","location":"Vacaville, CA, US","country":"United States"}},{"name":"Foo Fighters","years_active":[{"start":1994}],"id":"AR6XPWV1187B9ADAEB","artist_location":{"city":"Seattle","region":"Washington","location":"Seattle, WA, US","country":"United States"}},{"name":"Staind","years_active":[{"start":1994,"end":2012},{"start":2014}],"id":"AR3WLE91187B99430A","artist_location":{"city":"Springfield","region":"Massachusetts","location":"Springfield, MA, US","country":"United States"}},{"name":"Smash Mouth","years_active":[{"start":1994}],"id":"AR3R47O1187B9A3ED9","artist_location":{"city":"San Jose","region":"California","location":"San Jose, CA, US","country":"United States"}},{"name":"Garbage","years_active":[{"start":1994}],"id":"ARRIZSL1187B9A0ACA","artist_location":{"city":"Madison","region":"Wisconsin","location":"Madison, WI, US","country":"United States"}},{"name":"Tenacious D","years_active":[{"start":1994}],"id":"ARPINCM1187B9A6703","artist_location":{"city":"Los Angeles","region":"California","location":"Los Angeles, CA, US","country":"United States"}},{"name":"Hoobastank","years_active":[{"start":1994}],"id":"ARDAHWH1187FB4B0E7","artist_location":{"city":"Agoura Hills","region":"California","location":"Agoura Hills, CA, US","country":"United States"}},{"name":"Chevelle","years_active":[{"start":1995}],"id":"ARKWN6U1187B9A59E9","artist_location":{"city":"Grayslake","region":"IL","location":"Grayslake Illinois","country":"United States"}},{"name":"matchbox twenty","years_active":[{"start":1995,"end":2004},{"start":2007,"end":2008},{"start":2010}],"id":"ARVLXWP1187FB5B94A","artist_location":{"city":"Orlando","region":"FL","location":"Orlando, FL","country":"United States"}},{"name":"Blue October","years_active":[{"start":1995}],"id":"ARDQ62L1187FB56FF0","artist_location":{"city":"Houston","region":"TX","location":"Houston, TX","country":"United States"}},{"name":"Eels","years_active":[{"start":1995}],"id":"ARZGTK71187B9AC7F5","artist_location":{"city":"Los Angeles","region":"California","location":"Los Angeles, CA, US","country":"United States"}},{"name":"Godsmack","years_active":[{"start":1995}],"id":"AR8ICRA1187B9B8A5F","artist_location":{"city":"Lawrence","region":"Massachusetts","location":"Lawrence, MA, US","country":"United States"}},{"name":"Buckcherry","years_active":[{"start":1995,"end":2002},{"start":2005}],"id":"AROAILX1187FB3F858","artist_location":{"city":"Los Angeles","region":"California","location":"Los Angeles, CA, US","country":"United States"}},{"name":"Alien Ant Farm","years_active":[{"start":1995}],"id":"ARO6A7Q1187FB4CFC4","artist_location":{"city":"Riverside","region":"California","location":"Riverside, CA, US","country":"United States"}},{"name":"Switchfoot","years_active":[{"start":1996}],"id":"ART3U3E1187B99B1B8","artist_location":{"city":"San Diego","region":"California","location":"San Diego, CA, US","country":"United States"}},{"name":"Drowning Pool","years_active":[{"start":1996}],"id":"ARVSQHB1187B992FF0","artist_location":{"city":"Dallas","region":"Texas","location":"Dallas, TX, US","country":"United States"}},{"name":"Saliva","years_active":[{"start":1996}],"id":"ARP3XW41187FB40636","artist_location":{"city":"Memphis","region":"Tennessee","location":"Memphis, TN, US","country":"United States"}},{"name":"Cold","years_active":[{"start":1996,"end":2006},{"start":2009}],"id":"ARIWBIW1187FB565E9","artist_location":{"city":"Jacksonville","region":"Florida","location":"Jacksonville, FL, US","country":"United States"}},{"name":"3 Doors Down","years_active":[{"start":1996}],"id":"ARW1MUW1187FB4D5A1","artist_location":{"city":"Escatawpa","region":"Mississippi","location":"Escatawpa, MS, US","country":"United States"}},{"name":"Chris Cornell","years_active":[{"start":1998,"end":2000},{"start":2007}],"id":"ARDL7S81187FB37625","artist_location":{"city":"Seattle","region":"Washington","location":"Seattle, WA, US","country":"United States"}},{"name":"Breaking Benjamin","years_active":[{"start":1998,"end":2010}],"id":"ARYIIMH1187FB3EFE2","artist_location":{"city":"Wilkes-Barre","region":"Pennsylvania","location":"Wilkes-Barre, PA, US","country":"United States"}},{"name":"30 Seconds to Mars","years_active":[{"start":1998}],"id":"ARRBF3M1187FB4D59F","artist_location":{"city":"Los Angeles","region":"California","location":"Los Angeles, CA, US","country":"United States"}},{"name":"The Calling","years_active":[{"start":1999,"end":2005},{"start":2013}],"id":"ARXTH0J1187B9AE634","artist_location":{"city":"Los Angeles","region":"California","location":"Los Angeles, CA, US","country":"United States"}},{"name":"Lifehouse","years_active":[{"start":1999}],"id":"ARUTEVU1187B9ACAF9","artist_location":{"city":"Los Angeles","region":"CA","location":"Los Angeles, CA","country":"United States"}},{"name":"A Perfect Circle","years_active":[{"start":1999,"end":2004},{"start":2010}],"id":"ARVDO8G1187B99F43E","artist_location":{"city":"Los Angeles","region":"California","location":"Los Angeles, CA, US","country":"United States"}},{"name":"10 Years","years_active":[{"start":1999}],"id":"ARBRIE41187FB4D1BE","artist_location":{"city":"Knoxville","region":"Tennessee","location":"Knoxville, TN, US","country":"United States"}},{"name":"Shinedown","years_active":[{"start":2001}],"id":"ARGCBAJ1187FB3F481","artist_location":{"city":"Jacksonville","region":null,"location":"Jacksonville, FL","country":"United States"}},{"name":"Audioslave","years_active":[{"start":2001,"end":2007}],"id":"AR9LMA81187FB4C9B0","artist_location":{"city":"Los Angeles","region":"California","location":"Los Angeles, CA, US","country":"United States"}},{"name":"Velvet Revolver","years_active":[{"start":2002,"end":2008}],"id":"AR2I8O01187B9ADF56","artist_location":{"city":"Rancho Santa Margarita","region":"California","location":"Rancho Santa Margarita, CA, US","country":"United States"}},{"name":"Silversun Pickups","years_active":[{"start":2002}],"id":"ARI276C1187FB39DA4","artist_location":{"city":"Los Angeles","region":"California","location":"Los Angeles, CA, US","country":"United States"}},{"name":"Alter Bridge","years_active":[{"start":2004}],"id":"AR76WQI1187B9A2525","artist_location":{"city":"Orlando","region":"FL","location":"Orlando, FL","country":"United States"}},{"name":"Daughtry","years_active":[{"start":2006}],"id":"ARRESDK1187FB4E6DA","artist_location":{"city":"Mcleansville","region":"North Carolina","location":"Mcleansville, NC, US","country":"United States"}},{"name":"Them Crooked Vultures","years_active":[{"start":2009,"end":2010}],"id":"ARAXPXJ123E29C2923","artist_location":{"city":"Los Angeles","region":"California","location":"Los Angeles, CA, US","country":"United States"}}]}]